[
 {
   "ID": "01",
   "Name": "AIN",
   "Longitude": 5.2056,
   "Latitude": 46.0558
 },
 {
   "ID": "02",
   "Name": "AISNE",
   "Longitude": 3.333,
   "Latitude": 49.3334
 },
 {
   "ID": "03",
   "Name": "ALLIER",
   "Longitude": 3.1118,
   "Latitude": 46.2337
 },
 {
   "ID": "04",
   "Name": "ALPES-DE-HAUTEPROVENCE",
   "Longitude": 6.1438,
   "Latitude": 44.0622
 },
 {
   "ID": "05",
   "Name": "HAUTES-ALPES",
   "Longitude": 6.1547,
   "Latitude": 44.3949
 },
 {
   "ID": "06",
   "Name": "ALPES-MARITIMES",
   "Longitude": 7.0659,
   "Latitude": 43.5615
 },
 {
   "ID": "07",
   "Name": "ARDECHE",
   "Longitude": 4.2529,
   "Latitude": 44.4506
 },
 {
   "ID": "08",
   "Name": "ARDENNES",
   "Longitude": 4.3827,
   "Latitude": 49.3656
 },
 {
   "ID": "09",
   "Name": "ARIEGE",
   "Longitude": 1.3014,
   "Latitude": 42.5515
 },
 {
   "ID": "10",
   "Name": "AUBE",
   "Longitude": 4.0942,
   "Latitude": 48.1816
 },
 {
   "ID": "11",
   "Name": "AUDE",
   "Longitude": 2.2451,
   "Latitude": 43.0612
 },
 {
   "ID": "12",
   "Name": "AVEYRON",
   "Longitude": 2.4047,
   "Latitude": 44.1649
 },
 {
   "ID": "13",
   "Name": "BOUCHES-DU-RHONE",
   "Longitude": 5.0511,
   "Latitude": 43.3236
 },
 {
   "ID": "14",
   "Name": "CALVADOS",
   "Longitude": -0.2149,
   "Latitude": 49.0559
 },
 {
   "ID": "15",
   "Name": "CANTAL",
   "Longitude": 2.4007,
   "Latitude": 45.0304
 },
 {
   "ID": "16",
   "Name": "CHARENTE",
   "Longitude": 0.1206,
   "Latitude": 45.4305
 },
 {
   "ID": "17",
   "Name": "CHARENTE-MARITIME",
   "Longitude": -0.4028,
   "Latitude": 45.4651
 },
 {
   "ID": "18",
   "Name": "CHER",
   "Longitude": 2.2928,
   "Latitude": 47.0353
 },
 {
   "ID": "19",
   "Name": "CORREZE",
   "Longitude": 1.5237,
   "Latitude": 45.2125
 },
 {
   "ID": "2a",
   "Name": "CORSE-DU-SUD",
   "Longitude": 8.5917,
   "Latitude": 41.5149
 },
 {
   "ID": "2b",
   "Name": "HAUTE-CORSE",
   "Longitude": 9.1223,
   "Latitude": 42.2339
 },
 {
   "ID": "21",
   "Name": "COTE-D'OR",
   "Longitude": 4.462,
   "Latitude": 47.2529
 },
 {
   "ID": "22",
   "Name": "COTES-D'ARMOR",
   "Longitude": -2.5151,
   "Latitude": 48.2628
 },
 {
   "ID": "23",
   "Name": "CREUSE",
   "Longitude": 2.0108,
   "Latitude": 46.0525
 },
 {
   "ID": "24",
   "Name": "DORDOGNE",
   "Longitude": 0.4429,
   "Latitude": 45.0615
 },
 {
   "ID": "25",
   "Name": "DOUBS",
   "Longitude": 6.2142,
   "Latitude": 47.0955
 },
 {
   "ID": "26",
   "Name": "DROME",
   "Longitude": 5.1005,
   "Latitude": 44.4103
 },
 {
   "ID": "27",
   "Name": "EURE",
   "Longitude": 0.5946,
   "Latitude": 49.0649
 },
 {
   "ID": "28",
   "Name": "EURE-ET-LOIR",
   "Longitude": 1.2213,
   "Latitude": 48.2315
 },
 {
   "ID": "29",
   "Name": "FINISTERE",
   "Longitude": -4.0332,
   "Latitude": 48.154
 },
 {
   "ID": "30",
   "Name": "GARD",
   "Longitude": 4.1049,
   "Latitude": 43.5936
 },
 {
   "ID": "31",
   "Name": "HAUTE-GARONNE",
   "Longitude": 1.1022,
   "Latitude": 43.2131
 },
 {
   "ID": "32",
   "Name": "GERS",
   "Longitude": 0.2712,
   "Latitude": 43.4134
 },
 {
   "ID": "33",
   "Name": "GIRONDE",
   "Longitude": -0.3431,
   "Latitude": 44.4931
 },
 {
   "ID": "34",
   "Name": "HERAULT",
   "Longitude": 3.2202,
   "Latitude": 43.3447
 },
 {
   "ID": "35",
   "Name": "ILLE-ET-VILAINE",
   "Longitude": -1.3819,
   "Latitude": 48.0916
 },
 {
   "ID": "36",
   "Name": "INDRE",
   "Longitude": 1.3433,
   "Latitude": 46.464
 },
 {
   "ID": "37",
   "Name": "INDRE-ET-LOIRE",
   "Longitude": 0.4129,
   "Latitude": 47.1529
 },
 {
   "ID": "38",
   "Name": "ISERE",
   "Longitude": 5.3434,
   "Latitude": 45.1548
 },
 {
   "ID": "39",
   "Name": "JURA",
   "Longitude": 5.4152,
   "Latitude": 46.4342
 },
 {
   "ID": "40",
   "Name": "LANDES",
   "Longitude": -0.4702,
   "Latitude": 43.5756
 },
 {
   "ID": "41",
   "Name": "LOIR-ET-CHER",
   "Longitude": 1.2546,
   "Latitude": 47.37
 },
 {
   "ID": "42",
   "Name": "LOIRE",
   "Longitude": 4.0957,
   "Latitude": 45.4337
 },
 {
   "ID": "43",
   "Name": "HAUTE-LOIRE",
   "Longitude": 3.4823,
   "Latitude": 45.0741
 },
 {
   "ID": "44",
   "Name": "LOIRE-ATLANTIQUE",
   "Longitude": -1.4056,
   "Latitude": 47.2141
 },
 {
   "ID": "45",
   "Name": "LOIRET",
   "Longitude": 2.2039,
   "Latitude": 47.5443
 },
 {
   "ID": "46",
   "Name": "LOT",
   "Longitude": 1.3617,
   "Latitude": 44.3727
 },
 {
   "ID": "47",
   "Name": "LOT-ET-GARONNE",
   "Longitude": 0.2737,
   "Latitude": 44.2203
 },
 {
   "ID": "48",
   "Name": "LOZERE",
   "Longitude": 3.3001,
   "Latitude": 44.3102
 },
 {
   "ID": "49",
   "Name": "MAINE-ET-LOIRE",
   "Longitude": -0.3351,
   "Latitude": 47.2327
 },
 {
   "ID": "50",
   "Name": "MANCHE",
   "Longitude": -1.1939,
   "Latitude": 49.0446
 },
 {
   "ID": "51",
   "Name": "MARNE",
   "Longitude": 4.1419,
   "Latitude": 48.5657
 },
 {
   "ID": "52",
   "Name": "HAUTE-MARNE",
   "Longitude": 5.1335,
   "Latitude": 48.0634
 },
 {
   "ID": "53",
   "Name": "MAYENNE",
   "Longitude": -0.3929,
   "Latitude": 48.0848
 },
 {
   "ID": "54",
   "Name": "MEURTHE-ET-MOSELLE",
   "Longitude": 6.0954,
   "Latitude": 48.4713
 },
 {
   "ID": "55",
   "Name": "MEUSE",
   "Longitude": 5.2254,
   "Latitude": 48.5922
 },
 {
   "ID": "56",
   "Name": "MORBIHAN",
   "Longitude": -2.4836,
   "Latitude": 47.5047
 },
 {
   "ID": "57",
   "Name": "MOSELLE",
   "Longitude": 6.3948,
   "Latitude": 49.0214
 },
 {
   "ID": "58",
   "Name": "NIEVRE",
   "Longitude": 3.3017,
   "Latitude": 47.0655
 },
 {
   "ID": "59",
   "Name": "NORD",
   "Longitude": 3.1314,
   "Latitude": 50.265
 },
 {
   "ID": "60",
   "Name": "OISE",
   "Longitude": 2.2531,
   "Latitude": 49.2437
 },
 {
   "ID": "61",
   "Name": "ORNE",
   "Longitude": 0.0744,
   "Latitude": 48.3725
 },
 {
   "ID": "62",
   "Name": "PAS-DE-CALAIS",
   "Longitude": 2.1719,
   "Latitude": 50.2937
 },
 {
   "ID": "63",
   "Name": "PUY-DE-DOME",
   "Longitude": 3.0827,
   "Latitude": 45.4333
 },
 {
   "ID": "64",
   "Name": "PYRENEES-ATLANTIQUES",
   "Longitude": -0.4541,
   "Latitude": 43.1524
 },
 {
   "ID": "65",
   "Name": "HAUTES-PYRENEES",
   "Longitude": -0.095,
   "Latitude": 43.0311
 },
 {
   "ID": "66",
   "Name": "PYRENEES-ORIENTALES",
   "Longitude": -2.312,
   "Latitude": 42.36
 },
 {
   "ID": "67",
   "Name": "BAS-RHIN",
   "Longitude": 7.3305,
   "Latitude": 48.4015
 },
 {
   "ID": "68",
   "Name": "HAUT-RHIN",
   "Longitude": 7.1627,
   "Latitude": 47.5131
 },
 {
   "ID": "69",
   "Name": "RHONE",
   "Longitude": 4.3829,
   "Latitude": 45.5213
 },
 {
   "ID": "70",
   "Name": "HAUTE-SAONE",
   "Longitude": 6.051,
   "Latitude": 47.3828
 },
 {
   "ID": "71",
   "Name": "SAONE-ET-LOIRE",
   "Longitude": 4.3232,
   "Latitude": 46.3841
 },
 {
   "ID": "72",
   "Name": "SARTHE",
   "Longitude": 0.132,
   "Latitude": 47.594
 },
 {
   "ID": "73",
   "Name": "SAVOIE",
   "Longitude": 6.2637,
   "Latitude": 45.2839
 },
 {
   "ID": "74",
   "Name": "HAUTE-SAVOIE",
   "Longitude": 6.2541,
   "Latitude": 46.0204
 },
 {
   "ID": "75",
   "Name": "PARIS",
   "Longitude": 2.2032,
   "Latitude": 48.5124
 },
 {
   "ID": "76",
   "Name": "SEINE-MARITIME",
   "Longitude": 1.0135,
   "Latitude": 49.3918
 },
 {
   "ID": "77",
   "Name": "SEINE-ET-MARNE",
   "Longitude": 2.56,
   "Latitude": 48.3736
 },
 {
   "ID": "78",
   "Name": "YVELINES",
   "Longitude": 1.503,
   "Latitude": 48.4854
 },
 {
   "ID": "79",
   "Name": "DEUX-SEVRES",
   "Longitude": -0.1902,
   "Latitude": 46.332
 },
 {
   "ID": "80",
   "Name": "SOMME",
   "Longitude": 2.164,
   "Latitude": 49.5729
 },
 {
   "ID": "81",
   "Name": "TARN",
   "Longitude": 2.0958,
   "Latitude": 43.4707
 },
 {
   "ID": "82",
   "Name": "TARN-ET-GARONNE",
   "Longitude": 1.1655,
   "Latitude": 44.0509
 },
 {
   "ID": "83",
   "Name": "VAR",
   "Longitude": 6.1305,
   "Latitude": 43.2738
 },
 {
   "ID": "84",
   "Name": "VAUCLUSE",
   "Longitude": 5.111,
   "Latitude": 43.5938
 },
 {
   "ID": "85",
   "Name": "VENDEE",
   "Longitude": -1.1752,
   "Latitude": 46.4029
 },
 {
   "ID": "86",
   "Name": "VIENNE",
   "Longitude": 0.2737,
   "Latitude": 46.335
 },
 {
   "ID": "87",
   "Name": "HAUTE-VIENNE",
   "Longitude": 1.1407,
   "Latitude": 45.533
 },
 {
   "ID": "88",
   "Name": "VOSGES",
   "Longitude": 6.225,
   "Latitude": 48.1148
 },
 {
   "ID": "89",
   "Name": "YONNE",
   "Longitude": 3.3352,
   "Latitude": 47.5023
 },
 {
   "ID": "90",
   "Name": "TERRITOIRE DE BELFORT",
   "Longitude": 6.5543,
   "Latitude": 47.3754
 },
 {
   "ID": "91",
   "Name": "ESSONNE",
   "Longitude": 2.1435,
   "Latitude": 48.312
 },
 {
   "ID": "92",
   "Name": "HAUTS-DE-SEINE",
   "Longitude": 2.1445,
   "Latitude": 48.505
 },
 {
   "ID": "93",
   "Name": "SEINE-SAINT-DENIS",
   "Longitude": 2.2841,
   "Latitude": 48.5503
 },
 {
   "ID": "94",
   "Name": "VAL-DE-MARNE",
   "Longitude": 2.2808,
   "Latitude": 48.4639
 },
 {
   "ID": "95",
   "Name": "VAL-D'OISE",
   "Longitude": 2.0752,
   "Latitude": 49.0458
 }
]
